{
  "type": "FeatureCollection",
  "crs": {
    "type": "name",
    "properties": { "name": "urn:ogc:def:crs:OGC:1.3:CRS84" }
  },
  "features": [
    {
      "type": "Feature",
      "properties": {
        "STORE_ID": 960,
        "NAME": "Zarina Jewelry  House",
        "CITY": "Kyiv",
        "ADDRESS": "Kyiv, st. Hnata Khotkevycha, 1-B"
      },
      "geometry": {
        "type": "Point",
        "coordinates": [30.6349225, 50.455375]
      }
    },
    {
      "type": "Feature",
      "properties": {
        "STORE_ID": 961,
        "NAME": "Zarina Jewelry  House",
        "CITY": "Kyiv",
        "ADDRESS": "Kyiv, st. Zdolbunivska, 17"
      },
      "geometry": {
        "type": "Point",
        "coordinates": [30.6309967, 50.4188288]
      }
    },
    {
      "type": "Feature",
      "properties": {
        "STORE_ID": 962,
        "NAME": "Zarina Jewelry  House",
        "CITY": "Kyiv",
        "ADDRESS": "Kyiv, ave. Stepana Bandery, 23"
      },
      "geometry": {
        "type": "Point",
        "coordinates": [30.4950122, 50.4912385]
      }
    },
    {
      "type": "Feature",
      "properties": {
        "STORE_ID": 963,
        "NAME": "Zarina Jewelry  House",
        "CITY": "Kyiv",
        "ADDRESS": "Kyiv, ave. Tarasa Shevchenka, 2"
      },
      "geometry": {
        "type": "Point",
        "coordinates": [30.5173404, 50.4427651]
      }
    },
    {
      "type": "Feature",
      "properties": {
        "STORE_ID": 964,
        "NAME": "Zarina Jewelry  House",
        "CITY": "Kyiv",
        "ADDRESS": "Kyiv, st. Gryshka, 3a"
      },
      "geometry": {
        "type": "Point",
        "coordinates": [30.6302413, 50.395903]
      }
    },
    {
      "type": "Feature",
      "properties": {
        "STORE_ID": 965,
        "NAME": "Zarina Jewelry  House",
        "CITY": "Kyiv",
        "ADDRESS": "Kyiv, sq. Bessarabska, Mall 'Metrograd'"
      },
      "geometry": {
        "type": "Point",
        "coordinates": [30.5169848, 50.4408786]
      }
    },
    {
      "type": "Feature",
      "properties": {
        "STORE_ID": 966,
        "NAME": "Zarina Jewelry  House",
        "CITY": "Kyiv",
        "ADDRESS": "Kyiv, st. Dniprovska Naberezhna, 12"
      },
      "geometry": {
        "type": "Point",
        "coordinates": [30.5985449, 50.4106465]
      }
    },
    {
      "type": "Feature",
      "properties": {
        "STORE_ID": 967,

        "NAME": "Zarina Jewelry  House",
        "CITY": "Kyiv",
        "ADDRESS": "Kyiv, st. Velyka Okruzhna, Mall '4Room'"
      },
      "geometry": {
        "type": "Point",
        "coordinates": [30.3552515, 50.4381618]
      }
    },
    {
      "type": "Feature",
      "properties": {
        "STORE_ID": 968,
        "NAME": "Zarina Jewelry  House",
        "CITY": "Kyiv",
        "ADDRESS": "Kyiv, st. Antonovycha, 176"
      },
      "geometry": {
        "type": "Point",
        "coordinates": [30.5184069, 50.4130474]
      }
    },
    {
      "type": "Feature",
      "properties": {
        "STORE_ID": 969,
        "NAME": "Zarina Jewelry  House",
        "CITY": "Kyiv",
        "ADDRESS": "Kyiv, Independence Square, Mall 'Globus'"
      },
      "geometry": {
        "type": "Point",
        "coordinates": [30.5204507, 50.4509449]
      }
    },
    {
      "type": "Feature",
      "properties": {
        "STORE_ID": 970,
        "NAME": "Zarina Jewelry  House",
        "CITY": "Kyiv",
        "ADDRESS": "Kyiv, st. Zabolotnoho, 37"
      },
      "geometry": {
        "type": "Point",
        "coordinates": [30.54277, 50.3431154]
      }
    },
    {
      "type": "Feature",
      "properties": {
        "STORE_ID": 971,
        "NAME": "Zarina Jewelry  House",
        "CITY": "Kyiv",
        "ADDRESS": "Kyiv, sq. Sportyvna, 1, Mall 'Gulliver'"
      },
      "geometry": {
        "type": "Point",
        "coordinates": [30.5212397, 50.4386656]
      }
    },
    {
      "type": "Feature",
      "properties": {
        "STORE_ID": 972,
        "NAME": "Zarina Jewelry  House",
        "CITY": "Kyiv",
        "ADDRESS": "Kyiv, Kiltseva doroga, 110"
      },
      "geometry": {
        "type": "Point",
        "coordinates": [30.4384557, 50.3815041]
      }
    },
    {
      "type": "Feature",
      "properties": {
        "STORE_ID": 977,
        "NAME": "Zarina Jewelry  House",
        "CITY": "Bila Tserkva",
        "ADDRESS": "Bila Tserkva, st. Yaroslava Mydrogo, 40"
      },
      "geometry": {
        "type": "Point",
        "coordinates": [30.1200208, 49.7978248]
      }
    },
    {
      "type": "Feature",
      "properties": {
        "STORE_ID": 978,
        "NAME": "Zarina Jewelry  House",
        "CITY": "Dnipro",
        "ADDRESS": "Dnipro, ave. Yavornytskogo, 54"
      },
      "geometry": {
        "type": "Point",
        "coordinates": [35.041707, 48.4661887]
      }
    },
    {
      "type": "Feature",
      "properties": {
        "STORE_ID": 979,
        "NAME": "Zarina Jewelry  House",
        "CITY": "Berdychiv",
        "ADDRESS": "Berdychiv, st. Zhytomyrska, 20"
      },
      "geometry": {
        "type": "Point",
        "coordinates": [28.5800453, 49.898355]
      }
    },
    {
      "type": "Feature",
      "properties": {
        "STORE_ID": 980,
        "NAME": "Zarina Jewelry  House",
        "CITY": "Zaporizhzhia",
        "ADDRESS": "Zaporizhzhia, ave. Soborniy, 83/85"
      },
      "geometry": {
        "type": "Point",
        "coordinates": [35.1659495, 47.8230788]
      }
    },
    {
      "type": "Feature",
      "properties": {
        "STORE_ID": 981,
        "NAME": "Zarina Jewelry  House",
        "CITY": "Ivano-Frankivsk",
        "ADDRESS": "Ivano-Frankivsk, st. Shashkevicha, 2"
      },
      "geometry": {
        "type": "Point",
        "coordinates": [24.7095841, 48.9198163]
      }
    },
    {
      "type": "Feature",
      "properties": {
        "STORE_ID": 982,
        "NAME": "Zarina Jewelry  House",
        "CITY": "Kremenchuh",
        "ADDRESS": "Kremenchuh, st. Igora Serdyka, 37/18"
      },
      "geometry": {
        "type": "Point",
        "coordinates": [33.4106655, 49.0681102]
      }
    },
    {
      "type": "Feature",
      "properties": {
        "STORE_ID": 983,
        "NAME": "Zarina Jewelry  House",
        "CITY": "Kremenchuh",
        "ADDRESS": "Kremenchuh, st. Soborna, 10/7"
      },
      "geometry": {
        "type": "Point",
        "coordinates": [33.4060865, 49.0647038]
      }
    },
    {
      "type": "Feature",
      "properties": {
        "STORE_ID": 984,
        "NAME": "Zarina Jewelry  House",
        "CITY": "Kryvyi Rih",
        "ADDRESS": "Kryviy Pih, st. Yesenina, 5"
      },
      "geometry": {
        "type": "Point",
        "coordinates": [33.3936193, 47.9091663]
      }
    },
    {
      "type": "Feature",
      "properties": {
        "STORE_ID": 985,
        "NAME": "Zarina Jewelry  House",
        "CITY": "Lytsk",
        "ADDRESS": "Lytsk, ave. Voly, 17"
      },
      "geometry": {
        "type": "Point",
        "coordinates": [25.330437, 50.7464287]
      }
    },
    {
      "type": "Feature",
      "properties": {
        "STORE_ID": 986,
        "NAME": "Zarina Jewelry  House",
        "CITY": "Lviv",
        "ADDRESS": "Lviv, sq. Mitskevicha, 1"
      },
      "geometry": {
        "type": "Point",
        "coordinates": [24.0284197, 49.8387523]
      }
    },
    {
      "type": "Feature",
      "properties": {
        "STORE_ID": 987,
        "NAME": "Zarina Jewelry  House",
        "CITY": "Lviv",
        "ADDRESS": "Lviv, st. Pid Dybom, 7-b"
      },
      "geometry": {
        "type": "Point",
        "coordinates": [24.0201205, 49.8498827]
      }
    },
    {
      "type": "Feature",
      "properties": {
        "STORE_ID": 988,
        "NAME": "Zarina Jewelry  House",
        "CITY": "Mykolaiv",
        "ADDRESS": "Mykolaiv, ave. Central, 98"
      },
      "geometry": {
        "type": "Point",
        "coordinates": [31.99993, 46.9667025]
      }
    },
    {
      "type": "Feature",
      "properties": {
        "STORE_ID": 989,
        "NAME": "Zarina Jewelry  House",
        "CITY": "Odessa",
        "ADDRESS": "Odessa, st. RÑ–shelievska, 23"
      },
      "geometry": {
        "type": "Point",
        "coordinates": [30.7382438, 46.4785621]
      }
    },
    {
      "type": "Feature",
      "properties": {
        "STORE_ID": 990,
        "NAME": "Zarina Jewelry  House",
        "CITY": "Odessa",
        "ADDRESS": "Odessa, st. Preobrazhanska, 34"
      },
      "geometry": {
        "type": "Point",
        "coordinates": [30.7306559, 46.4840739]
      }
    },
    {
      "type": "Feature",
      "properties": {
        "STORE_ID": 991,
        "NAME": "Zarina Jewelry  House",
        "CITY": "Rivne",
        "ADDRESS": "Rivne, st. Makarova, 23"
      },
      "geometry": {
        "type": "Point",
        "coordinates": [30.698614, 46.3562009]
      }
    },
    {
      "type": "Feature",
      "properties": {
        "STORE_ID": 992,
        "NAME": "Zarina Jewelry  House",
        "CITY": "Sumy",
        "ADDRESS": "Sumy, st. Mykhaila Lushpy, 4/1"
      },
      "geometry": {
        "type": "Point",
        "coordinates": [34.8082946, 50.9047326]
      }
    },
    {
      "type": "Feature",
      "properties": {
        "STORE_ID": 993,
        "NAME": "Zarina Jewelry  House",
        "CITY": "Kharkiv",
        "ADDRESS": "Kharkiv, st. Alchevskykh, 38"
      },
      "geometry": {
        "type": "Point",
        "coordinates": [36.2413333, 50.0051513]
      }
    },
    {
      "type": "Feature",
      "properties": {
        "STORE_ID": 994,
        "NAME": "Zarina Jewelry  House",
        "CITY": "Kherson",
        "ADDRESS": "Kherson, st. Zalaeherseh, 18"
      },
      "geometry": {
        "type": "Point",
        "coordinates": [32.6418455, 46.6728406]
      }
    },
    {
      "type": "Feature",
      "properties": {
        "STORE_ID": 995,
        "NAME": "Zarina Jewelry  House",
        "CITY": "Cherkasy",
        "ADDRESS": "Cherkasy, ave. Shevchenko, 197"
      },
      "geometry": {
        "type": "Point",
        "coordinates": [32.0611411, 49.4423524]
      }
    },
    {
      "type": "Feature",
      "properties": {
        "STORE_ID": 996,
        "NAME": "Zarina Jewelry  House",
        "CITY": "Cherkasy",
        "ADDRESS": "Cherkasy, st. Pryportova, 34"
      },
      "geometry": {
        "type": "Point",
        "coordinates": [32.0889418, 49.4343044]
      }
    },
    {
      "type": "Feature",
      "properties": {
        "STORE_ID": 997,
        "NAME": "Zarina Jewelry  House",
        "CITY": "Chernivtsi",
        "ADDRESS": "Chernivtsi, st. Kobylianskoi, 22"
      },
      "geometry": {
        "type": "Point",
        "coordinates": [25.9345127, 48.2893237]
      }
    }
  ]
}
